{"type":"FeatureCollection","features":[
{"type": "Feature", "geometry": {"type": "Point", "coordinates": [77.2217181, 28.6890036]}, "properties": {"FID": 0, "NAME": "PS CIVIL LINES", "DISTRICT": "NORTH", "X": "717069\u00b0 16' 50.880\" E", "Y": "3175551\u00b0 40' 19.200\" N"}},
{"type": "Feature", "geometry": {"type": "Point", "coordinates": [77.2241975, 28.7065559]}, "properties": {"FID": 1, "NAME": "PS TIMAR PUR", "DISTRICT": "NORTH", "X": "717275\u00b0 18' 33.438\" E", "Y": "3177501\u00b0 32' 17.590\" N"}},
{"type": "Feature", "geometry": {"type": "Point", "coordinates": [77.2025435, 28.6848582]}, "properties": {"FID": 2, "NAME": "PS ROOP NAGAR", "DISTRICT": "NORTH", "X": "715203\u00b0 50' 25.440\" E", "Y": "3175057\u00b0 29' 25.080\" N"}},
{"type": "Feature", "geometry": {"type": "Point", "coordinates": [77.1834338, 28.6688069]}, "properties": {"FID": 3, "NAME": "PS SARAI ROHILLA", "DISTRICT": "NORTH", "X": "713368\u00b0 44' 6.909\" E", "Y": "3173244\u00b0 11' 44.173\" N"}},
{"type": "Feature", "geometry": {"type": "Point", "coordinates": [77.2081428, 28.6656794]}, "properties": {"FID": 4, "NAME": "PS BARA HINDU RAO", "DISTRICT": "NORTH", "X": "715790\u00b0 24' 13.680\" E", "Y": "3172941\u00b0 59' 48.840\" N"}},
{"type": "Feature", "geometry": {"type": "Point", "coordinates": [77.1923634, 28.6697732]}, "properties": {"FID": 5, "NAME": "PS GULABI BAGH", "DISTRICT": "NORTH", "X": "714239\u00b0 36' 59.725\" E", "Y": "3173367\u00b0 17' 4.793\" N"}},
{"type": "Feature", "geometry": {"type": "Point", "coordinates": [77.2069901, 28.6925384]}, "properties": {"FID": 6, "NAME": "PS MAURICE NAGAR", "DISTRICT": "NORTH", "X": "715622\u00b0 39' 54.309\" E", "Y": "3175916\u00b0 43' 26.409\" N"}},
{"type": "Feature", "geometry": {"type": "Point", "coordinates": [77.2189639, 28.6556548]}, "properties": {"FID": 7, "NAME": "PS LAHORI GATE", "DISTRICT": "NORTH", "X": "716868\u00b0 49' 44.224\" E", "Y": "3171850\u00b0 34' 30.162\" N"}},
{"type": "Feature", "geometry": {"type": "Point", "coordinates": [77.2108743, 28.6540994]}, "properties": {"FID": 8, "NAME": "PS SADAR BAZAR", "DISTRICT": "NORTH", "X": "716081\u00b0 10' 12.000\" E", "Y": "3171663\u00b0 31' 14.520\" N"}},
{"type": "Feature", "geometry": {"type": "Point", "coordinates": [77.2074478, 28.6693855]}, "properties": {"FID": 9, "NAME": "PS SUBZI MANDI", "DISTRICT": "NORTH", "X": "715714\u00b0 51' 56.170\" E", "Y": "3173351\u00b0 29' 46.250\" N"}},
{"type": "Feature", "geometry": {"type": "Point", "coordinates": [77.1970976, 28.7366215]}, "properties": {"FID": 10, "NAME": "PS BURARI", "DISTRICT": "NORTH", "X": "714565\u00b0 51' 36.966\" E", "Y": "3180784\u00b0 38' 13.683\" N"}},
{"type": "Feature", "geometry": {"type": "Point", "coordinates": [77.2311665, 28.6585669]}, "properties": {"FID": 11, "NAME": "PS KOTWALI", "DISTRICT": "NORTH", "X": "718055\u00b0 44' 22.200\" E", "Y": "3172195\u00b0 33' 22.320\" N"}},
{"type": "Feature", "geometry": {"type": "Point", "coordinates": [77.231063, 28.6627971]}, "properties": {"FID": 12, "NAME": "PS KASHMERE GATE", "DISTRICT": "NORTH", "X": "718036\u00b0 51' 27.752\" E", "Y": "3172664\u00b0 12' 0.319\" N"}},
{"type": "Feature", "geometry": {"type": "Point", "coordinates": [77.1928591, 28.6522586]}, "properties": {"FID": 13, "NAME": "PS KAROL BAGH", "DISTRICT": "CENTRAL", "X": "714323\u00b0 43' 19.423\" E", "Y": "3171427\u00b0 2' 12.347\" N"}},
{"type": "Feature", "geometry": {"type": "Point", "coordinates": [77.1932999, 28.6528663]}, "properties": {"FID": 14, "NAME": "PS D.B.G.ROAD", "DISTRICT": "CENTRAL", "X": "714365\u00b0 35' 1.478\" E", "Y": "3171495\u00b0 10' 32.993\" N"}},
{"type": "Feature", "geometry": {"type": "Point", "coordinates": [77.2408336, 28.6419774]}, "properties": {"FID": 15, "NAME": "PS DARYA GANJ", "DISTRICT": "CENTRAL", "X": "719035\u00b0 16' 44.040\" E", "Y": "3170374\u00b0 36' 34.560\" N"}},
{"type": "Feature", "geometry": {"type": "Point", "coordinates": [77.24742, 28.6271868]}, "properties": {"FID": 16, "NAME": "PS I.P. ESTATE", "DISTRICT": "CENTRAL", "X": "719710\u00b0 4' 53.543\" E", "Y": "3168747\u00b0 25' 44.163\" N"}},
{"type": "Feature", "geometry": {"type": "Point", "coordinates": [77.182831, 28.6347463]}, "properties": {"FID": 17, "NAME": "PS RAJINDER NAGAR", "DISTRICT": "CENTRAL", "X": "713378\u00b0 48' 39.540\" E", "Y": "3169468\u00b0 11' 50.832\" N"}},
{"type": "Feature", "geometry": {"type": "Point", "coordinates": [77.1807387, 28.6479689]}, "properties": {"FID": 18, "NAME": "PS PARSHAD NAGAR", "DISTRICT": "CENTRAL", "X": "713147\u00b0 28' 39.360\" E", "Y": "3170929\u00b0 54' 55.080\" N"}},
{"type": "Feature", "geometry": {"type": "Point", "coordinates": [77.2173521, 28.6497358]}, "properties": {"FID": 19, "NAME": "PS NABI KARIM", "DISTRICT": "CENTRAL", "X": "716723\u00b0 25' 49.427\" E", "Y": "3171191\u00b0 38' 8.533\" N"}},
{"type": "Feature", "geometry": {"type": "Point", "coordinates": [77.2262106, 28.6422216]}, "properties": {"FID": 20, "NAME": "PS KAMLA MARKET", "DISTRICT": "CENTRAL", "X": "717605\u00b0 0' 52.923\" E", "Y": "3170374\u00b0 56' 42.424\" N"}},
{"type": "Feature", "geometry": {"type": "Point", "coordinates": [77.2257729, 28.6498882]}, "properties": {"FID": 21, "NAME": "PS HAUZ QAZI", "DISTRICT": "CENTRAL", "X": "717546\u00b0 23' 42.242\" E", "Y": "3171223\u00b0 50' 39.923\" N"}},
{"type": "Feature", "geometry": {"type": "Point", "coordinates": [77.2340546, 28.6528612]}, "properties": {"FID": 22, "NAME": "PS JAMA MASJID", "DISTRICT": "CENTRAL", "X": "718349\u00b0 54' 4.933\" E", "Y": "3171568\u00b0 27' 38.748\" N"}},
{"type": "Feature", "geometry": {"type": "Point", "coordinates": [77.2362049, 28.6436547]}, "properties": {"FID": 23, "NAME": "PS CHANDNI MAHAL", "DISTRICT": "CENTRAL", "X": "718579\u00b0 13' 34.030\" E", "Y": "3170552\u00b0 1' 42.076\" N"}},
{"type": "Feature", "geometry": {"type": "Point", "coordinates": [77.1745147, 28.6595491]}, "properties": {"FID": 24, "NAME": "PS ANAND PARBAT", "DISTRICT": "CENTRAL", "X": "712515\u00b0 36' 31.993\" E", "Y": "3172202\u00b0 14' 55.709\" N"}},
{"type": "Feature", "geometry": {"type": "Point", "coordinates": [77.1578745, 28.6523319]}, "properties": {"FID": 25, "NAME": "PS PATEL NAGAR", "DISTRICT": "CENTRAL", "X": "710903\u00b0 23' 49.746\" E", "Y": "3171372\u00b0 51' 33.815\" N"}},
{"type": "Feature", "geometry": {"type": "Point", "coordinates": [77.2089105, 28.6456026]}, "properties": {"FID": 26, "NAME": "PS PAHAR GANJ", "DISTRICT": "CENTRAL", "X": "715906\u00b0 36' 16.920\" E", "Y": "3170718\u00b0 15' 42.120\" N"}},
{"type": "Feature", "geometry": {"type": "Point", "coordinates": [77.1737643, 28.6925229]}, "properties": {"FID": 27, "NAME": "PS ASHOK VIHAR", "DISTRICT": "NORTH WEST", "X": "712375\u00b0 41' 20.588\" E", "Y": "3175855\u00b0 22' 42.788\" N"}},
{"type": "Feature", "geometry": {"type": "Point", "coordinates": [77.1752284, 28.709987]}, "properties": {"FID": 28, "NAME": "PS ADARSH NAGAR", "DISTRICT": "NORTH WEST", "X": "712483\u00b0 27' 53.280\" E", "Y": "3177793\u00b0 31' 27.840\" N"}},
{"type": "Feature", "geometry": {"type": "Point", "coordinates": [77.1752291, 28.7335973]}, "properties": {"FID": 29, "NAME": "PS JAHANGIR PURI", "DISTRICT": "NORTH WEST", "X": "712435\u00b0 46' 4.135\" E", "Y": "3180410\u00b0 15' 55.090\" N"}},
{"type": "Feature", "geometry": {"type": "Point", "coordinates": [77.1571577, 28.7171097]}, "properties": {"FID": 30, "NAME": "PS SHALIMAR BAGH", "DISTRICT": "NORTH WEST", "X": "710703\u00b0 31' 6.600\" E", "Y": "3178550\u00b0 50' 44.520\" N"}},
{"type": "Feature", "geometry": {"type": "Point", "coordinates": [77.1441492, 28.6892882]}, "properties": {"FID": 31, "NAME": "PS SUBHASH PLACE", "DISTRICT": "NORTH WEST", "X": "709488\u00b0 1' 1.200\" E", "Y": "3175444\u00b0 29' 47.400\" N"}},
{"type": "Feature", "geometry": {"type": "Point", "coordinates": [77.1937399, 28.7023621]}, "properties": {"FID": 32, "NAME": "PS MODEL TOWN", "DISTRICT": "NORTH WEST", "X": "714307\u00b0 45' 21.240\" E", "Y": "3176981\u00b0 35' 57.120\" N"}},
{"type": "Feature", "geometry": {"type": "Point", "coordinates": [77.1561302, 28.7585547]}, "properties": {"FID": 33, "NAME": "PS SWARUP NAGAR", "DISTRICT": "OUTER NORTH", "X": "710519\u00b0 58' 56.803\" E", "Y": "3183142\u00b0 21' 44.913\" N"}},
{"type": "Feature", "geometry": {"type": "Point", "coordinates": [77.2863966, 28.6650097]}, "properties": {"FID": 34, "NAME": "PS FARASH BAZAR", "DISTRICT": "SHAHDARA", "X": "723441\u00b0 19' 51.117\" E", "Y": "3173011\u00b0 46' 31.925\" N"}},
{"type": "Feature", "geometry": {"type": "Point", "coordinates": [77.3063738, 28.6252562]}, "properties": {"FID": 35, "NAME": "PS MANDAWALI", "DISTRICT": "EAST", "X": "725479\u00b0 16' 15.832\" E", "Y": "3168643\u00b0 16' 59.818\" N"}},
{"type": "Feature", "geometry": {"type": "Point", "coordinates": [77.3040968, 28.6071228]}, "properties": {"FID": 36, "NAME": "PS MAYUR VIHAR", "DISTRICT": "EAST", "X": "725295\u00b0 19' 47.278\" E", "Y": "3166629\u00b0 11' 16.710\" N"}},
{"type": "Feature", "geometry": {"type": "Point", "coordinates": [77.3162599, 28.6779134]}, "properties": {"FID": 37, "NAME": "PS SEEMA PURI", "DISTRICT": "SHAHDARA", "X": "726332\u00b0 52' 22.726\" E", "Y": "3174498\u00b0 13' 59.154\" N"}},
{"type": "Feature", "geometry": {"type": "Point", "coordinates": [77.2851504, 28.6745019]}, "properties": {"FID": 38, "NAME": "PS SHAHDARA", "DISTRICT": "SHAHDARA", "X": "723299\u00b0 22' 8.357\" E", "Y": "3174061\u00b0 29' 41.271\" N"}},
{"type": "Feature", "geometry": {"type": "Point", "coordinates": [77.2676466, 28.6744562]}, "properties": {"FID": 39, "NAME": "PS SEELAM PUR", "DISTRICT": "NORTH EAST", "X": "721588\u00b0 32' 55.174\" E", "Y": "3174023\u00b0 48' 1.337\" N"}},
{"type": "Feature", "geometry": {"type": "Point", "coordinates": [77.286466, 28.7024409]}, "properties": {"FID": 40, "NAME": "PS GOKUL PURI", "DISTRICT": "NORTH EAST", "X": "723368\u00b0 36' 34.844\" E", "Y": "3177160\u00b0 33' 44.018\" N"}},
{"type": "Feature", "geometry": {"type": "Point", "coordinates": [77.2547673, 28.7133419]}, "properties": {"FID": 41, "NAME": "PS KHAJURI KHAS", "DISTRICT": "NORTH EAST", "X": "720248\u00b0 11' 7.447\" E", "Y": "3178309\u00b0 45' 31.234\" N"}},
{"type": "Feature", "geometry": {"type": "Point", "coordinates": [77.264855, 28.7011244]}, "properties": {"FID": 42, "NAME": "PS BHAJAN PURA", "DISTRICT": "NORTH EAST", "X": "721259\u00b0 34' 7.680\" E", "Y": "3176974\u00b0 20' 29.400\" N"}},
{"type": "Feature", "geometry": {"type": "Point", "coordinates": [77.3076845, 28.6973773]}, "properties": {"FID": 43, "NAME": "PS NAND NAGRI", "DISTRICT": "NORTH EAST", "X": "725452\u00b0 56' 53.578\" E", "Y": "3176639\u00b0 16' 25.018\" N"}},
{"type": "Feature", "geometry": {"type": "Point", "coordinates": [77.2751812, 28.7328459]}, "properties": {"FID": 44, "NAME": "PS KARAWAL NAGAR", "DISTRICT": "NORTH EAST", "X": "722201\u00b0 31' 41.880\" E", "Y": "3180509\u00b0 22' 38.280\" N"}},
{"type": "Feature", "geometry": {"type": "Point", "coordinates": [77.2619612, 28.6726032]}, "properties": {"FID": 45, "NAME": "PS NEW USMAN PUR", "DISTRICT": "NORTH EAST", "X": "721036\u00b0 43' 14.104\" E", "Y": "3173807\u00b0 52' 49.337\" N"}},
{"type": "Feature", "geometry": {"type": "Point", "coordinates": [77.3186284, 28.7058868]}, "properties": {"FID": 46, "NAME": "PS HARSH VIHAR", "DISTRICT": "NORTH EAST", "X": "726504\u00b0 6' 20.160\" E", "Y": "3177603\u00b0 10' 40.440\" N"}},
{"type": "Feature", "geometry": {"type": "Point", "coordinates": [77.2330768, 28.5648616]}, "properties": {"FID": 47, "NAME": "PS DEFENCE COLONY", "DISTRICT": "SOUTH", "X": "718436\u00b0 25' 8.748\" E", "Y": "3161813\u00b0 35' 43.440\" N"}},
{"type": "Feature", "geometry": {"type": "Point", "coordinates": [77.2263869, 28.5879818]}, "properties": {"FID": 48, "NAME": "PS LODHI COLONY", "DISTRICT": "SOUTH", "X": "717734\u00b0 11' 9.960\" E", "Y": "3164363\u00b0 49' 38.640\" N"}},
{"type": "Feature", "geometry": {"type": "Point", "coordinates": [77.20824, 28.5491609]}, "properties": {"FID": 49, "NAME": "PS HAUZ KHAS", "DISTRICT": "SOUTH", "X": "716038\u00b0 19' 29.280\" E", "Y": "3160028\u00b0 26' 40.920\" N"}},
{"type": "Feature", "geometry": {"type": "Point", "coordinates": [77.1691535, 28.5581465]}, "properties": {"FID": 50, "NAME": "PS VASANT VIHAR", "DISTRICT": "SOUTH WEST", "X": "712195\u00b0 21' 1.499\" E", "Y": "3160954\u00b0 25' 55.067\" N"}},
{"type": "Feature", "geometry": {"type": "Point", "coordinates": [77.1785559, 28.5705215]}, "properties": {"FID": 51, "NAME": "PS R.K.PURAM", "DISTRICT": "SOUTH WEST", "X": "713090\u00b0 25' 33.383\" E", "Y": "3162342\u00b0 37' 12.870\" N"}},
{"type": "Feature", "geometry": {"type": "Point", "coordinates": [77.1994586, 28.5745554]}, "properties": {"FID": 52, "NAME": "PS SAROJINI NAGAR", "DISTRICT": "SOUTH WEST", "X": "715127\u00b0 18' 26.531\" E", "Y": "3162827\u00b0 5' 16.370\" N"}},
{"type": "Feature", "geometry": {"type": "Point", "coordinates": [77.1518159, 28.5352237]}, "properties": {"FID": 53, "NAME": "PS VASANT KUNJ NORTH", "DISTRICT": "SOUTH WEST", "X": "710544\u00b0 29' 43.573\" E", "Y": "3158383\u00b0 22' 56.106\" N"}},
{"type": "Feature", "geometry": {"type": "Point", "coordinates": [77.2251092, 28.5760123]}, "properties": {"FID": 54, "NAME": "PS KOTLA MUBARAK PUR", "DISTRICT": "SOUTH", "X": "717633\u00b0 51' 21.255\" E", "Y": "3163034\u00b0 55' 8.441\" N"}},
{"type": "Feature", "geometry": {"type": "Point", "coordinates": [77.2169771, 28.5262496]}, "properties": {"FID": 55, "NAME": "PS SAKET", "DISTRICT": "SOUTH", "X": "716940\u00b0 17' 59.645\" E", "Y": "3157504\u00b0 59' 36.807\" N"}},
{"type": "Feature", "geometry": {"type": "Point", "coordinates": [77.2138967, 28.4989433]}, "properties": {"FID": 56, "NAME": "PS NEB SARAI", "DISTRICT": "SOUTH", "X": "716694\u00b0 37' 49.543\" E", "Y": "3154473\u00b0 5' 35.062\" N"}},
{"type": "Feature", "geometry": {"type": "Point", "coordinates": [77.2045739, 28.5307629]}, "properties": {"FID": 57, "NAME": "PS MALVIYA NAGAR", "DISTRICT": "SOUTH", "X": "715717\u00b0 4' 16.266\" E", "Y": "3157982\u00b0 48' 55.120\" N"}},
{"type": "Feature", "geometry": {"type": "Point", "coordinates": [76.9829968, 28.609964]}, "properties": {"FID": 58, "NAME": "PS NAJAFGARH", "DISTRICT": "DWARKA", "X": "693885\u00b0 27' 35.688\" E", "Y": "3166381\u00b0 14' 23.192\" N"}},
{"type": "Feature", "geometry": {"type": "Point", "coordinates": [77.087363, 28.5295042]}, "properties": {"FID": 59, "NAME": "PS KAPASHERA", "DISTRICT": "SOUTH WEST", "X": "704247\u00b0 34' 43.344\" E", "Y": "3157637\u00b0 59' 46.850\" N"}},
{"type": "Feature", "geometry": {"type": "Point", "coordinates": [77.1239359, 28.59897]}, "properties": {"FID": 60, "NAME": "PS DELHI CANTT.", "DISTRICT": "SOUTH WEST", "X": "707690\u00b0 35' 47.398\" E", "Y": "3165399\u00b0 27' 44.545\" N"}},
{"type": "Feature", "geometry": {"type": "Point", "coordinates": [77.1375874, 28.6331459]}, "properties": {"FID": 61, "NAME": "PS NARAINA", "DISTRICT": "WEST", "X": "708958\u00b0 8' 18.129\" E", "Y": "3169210\u00b0 51' 43.501\" N"}},
{"type": "Feature", "geometry": {"type": "Point", "coordinates": [77.085569, 28.613091]}, "properties": {"FID": 62, "NAME": "PS DABRI", "DISTRICT": "DWARKA", "X": "703910\u00b0 39' 45.225\" E", "Y": "3166898\u00b0 24' 6.813\" N"}},
{"type": "Feature", "geometry": {"type": "Point", "coordinates": [77.0581247, 28.5646858]}, "properties": {"FID": 63, "NAME": "PS DWARKA SEC-23", "DISTRICT": "DWARKA", "X": "701318\u00b0 59' 2.010\" E", "Y": "3161487\u00b0 27' 48.549\" N"}},
{"type": "Feature", "geometry": {"type": "Point", "coordinates": [77.0767921, 28.6116861]}, "properties": {"FID": 64, "NAME": "PS BINDA PUR", "DISTRICT": "DWARKA", "X": "703055\u00b0 1' 18.028\" E", "Y": "3166727\u00b0 45' 57.821\" N"}},
{"type": "Feature", "geometry": {"type": "Point", "coordinates": [77.1461137, 28.700265]}, "properties": {"FID": 65, "NAME": "PS MAURYA ENCLAVE", "DISTRICT": "NORTH WEST", "X": "709658\u00b0 6' 29.520\" E", "Y": "3176664\u00b0 29' 45.960\" N"}},
{"type": "Feature", "geometry": {"type": "Point", "coordinates": [77.1596387, 28.6838831]}, "properties": {"FID": 66, "NAME": "PS KESHAV PURAM", "DISTRICT": "NORTH WEST", "X": "711012\u00b0 36' 17.085\" E", "Y": "3174872\u00b0 45' 35.171\" N"}},
{"type": "Feature", "geometry": {"type": "Point", "coordinates": [77.2088329, 28.7000271]}, "properties": {"FID": 67, "NAME": "PS MUKHERJI NAGAR", "DISTRICT": "NORTH WEST", "X": "715787\u00b0 23' 4.589\" E", "Y": "3176750\u00b0 2' 20.139\" N"}},
{"type": "Feature", "geometry": {"type": "Point", "coordinates": [77.0416937, 28.7965475]}, "properties": {"FID": 68, "NAME": "PS BAWANA", "DISTRICT": "OUTER NORTH", "X": "699271\u00b0 45' 1.642\" E", "Y": "3187155\u00b0 53' 7.081\" N"}},
{"type": "Feature", "geometry": {"type": "Point", "coordinates": [77.0880464, 28.8532894]}, "properties": {"FID": 69, "NAME": "PS NARELA", "DISTRICT": "OUTER NORTH", "X": "703686\u00b0 21' 28.253\" E", "Y": "3193523\u00b0 4' 39.710\" N"}},
{"type": "Feature", "geometry": {"type": "Point", "coordinates": [77.1386959, 28.7989271]}, "properties": {"FID": 70, "NAME": "PS ALI PUR", "DISTRICT": "OUTER NORTH", "X": "708736\u00b0 51' 39.960\" E", "Y": "3187586\u00b0 6' 10.800\" N"}},
{"type": "Feature", "geometry": {"type": "Point", "coordinates": [77.0033061, 28.7255557]}, "properties": {"FID": 71, "NAME": "PS KANJHAWALA", "DISTRICT": "ROHINI", "X": "695656\u00b0 39' 16.200\" E", "Y": "3179224\u00b0 31' 43.680\" N"}},
{"type": "Feature", "geometry": {"type": "Point", "coordinates": [77.1413764, 28.7250883]}, "properties": {"FID": 72, "NAME": "PS SAMAIPUR BADLI", "DISTRICT": "OUTER NORTH", "X": "709145\u00b0 46' 49.870\" E", "Y": "3179407\u00b0 17' 58.527\" N"}},
{"type": "Feature", "geometry": {"type": "Point", "coordinates": [77.0914815, 28.6963453]}, "properties": {"FID": 73, "NAME": "PS MANGOL PURI", "DISTRICT": "OUTER", "X": "704327\u00b0 18' 4.460\" E", "Y": "3176135\u00b0 14' 17.604\" N"}},
{"type": "Feature", "geometry": {"type": "Point", "coordinates": [77.0789438, 28.7028222]}, "properties": {"FID": 74, "NAME": "PS SULTAN PURI", "DISTRICT": "OUTER", "X": "703089\u00b0 37' 28.200\" E", "Y": "3176831\u00b0 37' 35.040\" N"}},
{"type": "Feature", "geometry": {"type": "Point", "coordinates": [77.1273085, 28.7178918]}, "properties": {"FID": 75, "NAME": "PS PARSHANT VIHAR", "DISTRICT": "ROHINI", "X": "707785\u00b0 40' 30.000\" E", "Y": "3178585\u00b0 6' 36.000\" N"}},
{"type": "Feature", "geometry": {"type": "Point", "coordinates": [77.0788387, 28.7476203]}, "properties": {"FID": 76, "NAME": "PS SHAHBAD DAIRY", "DISTRICT": "OUTER NORTH", "X": "702992\u00b0 44' 31.629\" E", "Y": "3181796\u00b0 15' 49.601\" N"}},
{"type": "Feature", "geometry": {"type": "Point", "coordinates": [77.1080145, 28.7174459]}, "properties": {"FID": 77, "NAME": "PS BUDH VIHAR", "DISTRICT": "ROHINI", "X": "705901\u00b0 32' 18.473\" E", "Y": "3178502\u00b0 12' 17.759\" N"}},
{"type": "Feature", "geometry": {"type": "Point", "coordinates": [77.2130074, 28.6249243]}, "properties": {"FID": 78, "NAME": "PS PARLIAMENT STREET", "DISTRICT": "NEW DELHI", "X": "716349\u00b0 36' 4.311\" E", "Y": "3168433\u00b0 53' 50.788\" N"}},
{"type": "Feature", "geometry": {"type": "Point", "coordinates": [77.1959079, 28.6030509]}, "properties": {"FID": 79, "NAME": "PS CHANAKYA PURI", "DISTRICT": "NEW DELHI", "X": "714721\u00b0 58' 43.680\" E", "Y": "3165978\u00b0 50' 34.080\" N"}},
{"type": "Feature", "geometry": {"type": "Point", "coordinates": [77.210571, 28.5979859]}, "properties": {"FID": 80, "NAME": "PS TUGLAK ROAD", "DISTRICT": "NEW DELHI", "X": "716166\u00b0 32' 8.160\" E", "Y": "3165443\u00b0 54' 2.520\" N"}},
{"type": "Feature", "geometry": {"type": "Point", "coordinates": [77.2354392, 28.6179586]}, "properties": {"FID": 81, "NAME": "PS TILAK MARG", "DISTRICT": "NEW DELHI", "X": "718557\u00b0 37' 48.360\" E", "Y": "3167702\u00b0 41' 30.480\" N"}},
{"type": "Feature", "geometry": {"type": "Point", "coordinates": [77.2141392, 28.6299111]}, "properties": {"FID": 82, "NAME": "PS CONNAUGHT PLACE", "DISTRICT": "NEW DELHI", "X": "716450\u00b0 2' 12.350\" E", "Y": "3168988\u00b0 38' 7.354\" N"}},
{"type": "Feature", "geometry": {"type": "Point", "coordinates": [77.2257544, 28.6306772]}, "properties": {"FID": 83, "NAME": "PS BARAKHAMBA ROAD", "DISTRICT": "NEW DELHI", "X": "717584\u00b0 14' 42.013\" E", "Y": "3169094\u00b0 38' 8.759\" N"}},
{"type": "Feature", "geometry": {"type": "Point", "coordinates": [77.2032679, 28.6390665]}, "properties": {"FID": 84, "NAME": "PS MANDIR MARG", "DISTRICT": "NEW DELHI", "X": "715368\u00b0 17' 6.000\" E", "Y": "3169983\u00b0 41' 2.713\" N"}},
{"type": "Feature", "geometry": {"type": "Point", "coordinates": [77.2838032, 28.6438298]}, "properties": {"FID": 85, "NAME": "PS JAGAT PURI", "DISTRICT": "SHAHDARA", "X": "723232\u00b0 42' 43.279\" E", "Y": "3170659\u00b0 28' 9.471\" N"}},
{"type": "Feature", "geometry": {"type": "Point", "coordinates": [77.3028118, 28.6201584]}, "properties": {"FID": 86, "NAME": "PS PANDAV NAGAR", "DISTRICT": "EAST", "X": "725141\u00b0 49' 26.270\" E", "Y": "3168071\u00b0 33' 20.572\" N"}},
{"type": "Feature", "geometry": {"type": "Point", "coordinates": [77.3175012, 28.6132579]}, "properties": {"FID": 87, "NAME": "PS KALYAN PURI", "DISTRICT": "EAST", "X": "726593\u00b0 13' 47.640\" E", "Y": "3167334\u00b0 29' 48.120\" N"}},
{"type": "Feature", "geometry": {"type": "Point", "coordinates": [77.2760615, 28.6553387]}, "properties": {"FID": 88, "NAME": "PS GEETA COLONY", "DISTRICT": "SHAHDARA", "X": "722451\u00b0 27' 39.960\" E", "Y": "3171920\u00b0 35' 58.560\" N"}},
{"type": "Feature", "geometry": {"type": "Point", "coordinates": [77.3064175, 28.6669815]}, "properties": {"FID": 89, "NAME": "PS VIVEK VIHAR", "DISTRICT": "SHAHDARA", "X": "725394\u00b0 15' 2.520\" E", "Y": "3173267\u00b0 58' 5.520\" N"}},
{"type": "Feature", "geometry": {"type": "Point", "coordinates": [77.2802221, 28.6672157]}, "properties": {"FID": 90, "NAME": "PS KRISHNA NAGAR", "DISTRICT": "SHAHDARA", "X": "722833\u00b0 4' 40.440\" E", "Y": "3173244\u00b0 43' 54.120\" N"}},
{"type": "Feature", "geometry": {"type": "Point", "coordinates": [77.2706621, 28.6373766]}, "properties": {"FID": 91, "NAME": "PS SHAKAR PUR", "DISTRICT": "EAST", "X": "721961\u00b0 26' 36.942\" E", "Y": "3169919\u00b0 45' 27.357\" N"}},
{"type": "Feature", "geometry": {"type": "Point", "coordinates": [77.2676243, 28.6599666]}, "properties": {"FID": 92, "NAME": "PS GANDHI NAGAR", "DISTRICT": "SHAHDARA", "X": "721616\u00b0 52' 17.040\" E", "Y": "3172417\u00b0 49' 49.440\" N"}},
{"type": "Feature", "geometry": {"type": "Point", "coordinates": [77.3234365, 28.6037645]}, "properties": {"FID": 93, "NAME": "PS NEW ASHOK NAGAR", "DISTRICT": "EAST", "X": "727194\u00b0 9' 49.006\" E", "Y": "3166293\u00b0 33' 59.903\" N"}},
{"type": "Feature", "geometry": {"type": "Point", "coordinates": [77.0726142, 28.7223213]}, "properties": {"FID": 94, "NAME": "PS BEGUM PUR", "DISTRICT": "ROHINI", "X": "702433\u00b0 34' 23.773\" E", "Y": "3178981\u00b0 52' 25.521\" N"}},
{"type": "Feature", "geometry": {"type": "Point", "coordinates": [77.1785889, 28.570619]}, "properties": {"FID": 95, "NAME": "PS SOUTH CAMPUS", "DISTRICT": "SOUTH WEST", "X": "713093\u00b0 27' 14.781\" E", "Y": "3162353\u00b0 29' 21.954\" N"}},
{"type": "Feature", "geometry": {"type": "Point", "coordinates": [77.1507723, 28.4654124]}, "properties": {"FID": 96, "NAME": "PS FATEHPUR BERI", "DISTRICT": "SOUTH", "X": "710581\u00b0 0' 14.280\" E", "Y": "3150644\u00b0 37' 51.785\" N"}},
{"type": "Feature", "geometry": {"type": "Point", "coordinates": [77.2907133, 28.5019406]}, "properties": {"FID": 97, "NAME": "PS PUL PRAHLAD PUR", "DISTRICT": "SOUTH EAST", "X": "724209\u00b0 12' 31.576\" E", "Y": "3154946\u00b0 25' 34.249\" N"}},
{"type": "Feature", "geometry": {"type": "Point", "coordinates": [77.1451802, 28.6310983]}, "properties": {"FID": 98, "NAME": "PS INDER PURI", "DISTRICT": "WEST", "X": "709704\u00b0 37' 54.748\" E", "Y": "3168997\u00b0 14' 15.521\" N"}},
{"type": "Feature", "geometry": {"type": "Point", "coordinates": [77.0829131, 28.5882737]}, "properties": {"FID": 99, "NAME": "PS PALAM VILLAGE", "DISTRICT": "SOUTH WEST", "X": "703698\u00b0 48' 47.365\" E", "Y": "3164143\u00b0 30' 17.845\" N"}},
{"type": "Feature", "geometry": {"type": "Point", "coordinates": [76.914548, 28.5958773]}, "properties": {"FID": 100, "NAME": "PS JAFFARPUR KALAN", "DISTRICT": "DWARKA", "X": "687216\u00b0 32' 33.053\" E", "Y": "3164711\u00b0 6' 1.274\" N"}},
{"type": "Feature", "geometry": {"type": "Point", "coordinates": [76.9950081, 28.5868774]}, "properties": {"FID": 101, "NAME": "PS CHHAWLA", "DISTRICT": "DWARKA", "X": "695102\u00b0 46' 18.294\" E", "Y": "3163842\u00b0 16' 46.107\" N"}},
{"type": "Feature", "geometry": {"type": "Point", "coordinates": [77.2403994, 28.5683858]}, "properties": {"FID": 102, "NAME": "PS LAJPAT NAGAR", "DISTRICT": "SOUTH EAST", "X": "719145\u00b0 35' 33.720\" E", "Y": "3162217\u00b0 33' 55.440\" N"}},
{"type": "Feature", "geometry": {"type": "Point", "coordinates": [77.2559679, 28.5470259]}, "properties": {"FID": 103, "NAME": "PS KALKAJI", "DISTRICT": "SOUTH EAST", "X": "720713\u00b0 26' 36.240\" E", "Y": "3159878\u00b0 49' 24.600\" N"}},
{"type": "Feature", "geometry": {"type": "Point", "coordinates": [77.2744829, 28.5271264]}, "properties": {"FID": 104, "NAME": "PS OKHLA INDL. AREA", "DISTRICT": "SOUTH EAST", "X": "722567\u00b0 13' 43.680\" E", "Y": "3157707\u00b0 35' 9.240\" N"}},
{"type": "Feature", "geometry": {"type": "Point", "coordinates": [77.2434007, 28.509647]}, "properties": {"FID": 105, "NAME": "PS SANGAM VIHAR", "DISTRICT": "SOUTH", "X": "719561\u00b0 5' 34.729\" E", "Y": "3155713\u00b0 1' 18.098\" N"}},
{"type": "Feature", "geometry": {"type": "Point", "coordinates": [77.2437789, 28.5922404]}, "properties": {"FID": 106, "NAME": "PS H.N.DIN", "DISTRICT": "SOUTH EAST", "X": "719426\u00b0 41' 47.869\" E", "Y": "3164867\u00b0 35' 15.053\" N"}},
{"type": "Feature", "geometry": {"type": "Point", "coordinates": [77.2921969, 28.5619285]}, "properties": {"FID": 107, "NAME": "PS JAMIA NAGAR", "DISTRICT": "SOUTH EAST", "X": "724227\u00b0 20' 35.880\" E", "Y": "3161597\u00b0 47' 58.560\" N"}},
{"type": "Feature", "geometry": {"type": "Point", "coordinates": [77.2492756, 28.5367953]}, "properties": {"FID": 108, "NAME": "PS CHITRANJAN PARK", "DISTRICT": "SOUTH", "X": "720079\u00b0 47' 30.631\" E", "Y": "3158732\u00b0 39' 1.856\" N"}},
{"type": "Feature", "geometry": {"type": "Point", "coordinates": [77.2432857, 28.5462728]}, "properties": {"FID": 109, "NAME": "PS GREATER KAILASH", "DISTRICT": "SOUTH", "X": "719473\u00b0 53' 9.293\" E", "Y": "3159772\u00b0 3' 27.765\" N"}},
{"type": "Feature", "geometry": {"type": "Point", "coordinates": [77.2407504, 28.5235428]}, "properties": {"FID": 110, "NAME": "PS AMBEDKAR NAGAR", "DISTRICT": "SOUTH", "X": "719272\u00b0 51' 43.152\" E", "Y": "3157248\u00b0 14' 32.592\" N"}},
{"type": "Feature", "geometry": {"type": "Point", "coordinates": [77.3038557, 28.4938049]}, "properties": {"FID": 111, "NAME": "PS BADAR PUR", "DISTRICT": "SOUTH EAST", "X": "725513\u00b0 14' 46.725\" E", "Y": "3154069\u00b0 21' 38.755\" N"}},
{"type": "Feature", "geometry": {"type": "Point", "coordinates": [77.2814924, 28.5402597]}, "properties": {"FID": 112, "NAME": "PS SARITA VIHAR", "DISTRICT": "SOUTH EAST", "X": "723225\u00b0 38' 21.428\" E", "Y": "3159176\u00b0 12' 12.705\" N"}},
{"type": "Feature", "geometry": {"type": "Point", "coordinates": [77.2674027, 28.562371]}, "properties": {"FID": 113, "NAME": "PS NEW FRIENDS COLONY", "DISTRICT": "SOUTH EAST", "X": "721800\u00b0 18' 4.680\" E", "Y": "3161600\u00b0 39' 47.520\" N"}},
{"type": "Feature", "geometry": {"type": "Point", "coordinates": [77.2406462, 28.5593152]}, "properties": {"FID": 114, "NAME": "PS AMAR COLONY", "DISTRICT": "SOUTH EAST", "X": "719188\u00b0 32' 45.440\" E", "Y": "3161212\u00b0 43' 35.008\" N"}},
{"type": "Feature", "geometry": {"type": "Point", "coordinates": [77.3196082, 28.5037251]}, "properties": {"FID": 115, "NAME": "PS JAITPUR", "DISTRICT": "SOUTH EAST", "X": "727034\u00b0 23' 2.510\" E", "Y": "3155198\u00b0 33' 8.926\" N"}},
{"type": "Feature", "geometry": {"type": "Point", "coordinates": [77.2656643, 28.5307476]}, "properties": {"FID": 116, "NAME": "PS GOVIND PURI", "DISTRICT": "SOUTH EAST", "X": "721696\u00b0 28' 10.518\" E", "Y": "3158092\u00b0 35' 14.393\" N"}},
{"type": "Feature", "geometry": {"type": "Point", "coordinates": [77.1321312, 28.6741777]}, "properties": {"FID": 117, "NAME": "PS PUNJABI BAGH", "DISTRICT": "WEST", "X": "708343\u00b0 27' 36.877\" E", "Y": "3173748\u00b0 46' 49.904\" N"}},
{"type": "Feature", "geometry": {"type": "Point", "coordinates": [77.1009645, 28.670992]}, "properties": {"FID": 118, "NAME": "PS PASCHIM VIHAR EAST", "DISTRICT": "OUTER", "X": "705303\u00b0 26' 12.120\" E", "Y": "3173341\u00b0 41' 57.840\" N"}},
{"type": "Feature", "geometry": {"type": "Point", "coordinates": [77.1467479, 28.6604639]}, "properties": {"FID": 119, "NAME": "PS MOTI NAGAR", "DISTRICT": "WEST", "X": "709799\u00b0 26' 6.720\" E", "Y": "3172254\u00b0 31' 5.160\" N"}},
{"type": "Feature", "geometry": {"type": "Point", "coordinates": [77.1199405, 28.651498]}, "properties": {"FID": 120, "NAME": "PS RAJOURI GARDEN", "DISTRICT": "WEST", "X": "707196\u00b0 33' 42.480\" E", "Y": "3171214\u00b0 2' 0.960\" N"}},
{"type": "Feature", "geometry": {"type": "Point", "coordinates": [77.0998385, 28.6094773]}, "properties": {"FID": 121, "NAME": "PS SAGAR PUR", "DISTRICT": "SOUTH WEST", "X": "705313\u00b0 11' 47.760\" E", "Y": "3166522\u00b0 19' 49.800\" N"}},
{"type": "Feature", "geometry": {"type": "Point", "coordinates": [77.0648647, 28.6253591]}, "properties": {"FID": 122, "NAME": "PS UTTAM NAGAR", "DISTRICT": "DWARKA", "X": "701862\u00b0 23' 56.400\" E", "Y": "3168222\u00b0 52' 10.200\" N"}},
{"type": "Feature", "geometry": {"type": "Point", "coordinates": [77.0818593, 28.6284002]}, "properties": {"FID": 123, "NAME": "PS JANAK PURI", "DISTRICT": "WEST", "X": "703518\u00b0 19' 29.640\" E", "Y": "3168588\u00b0 43' 57.720\" N"}},
{"type": "Feature", "geometry": {"type": "Point", "coordinates": [77.1019308, 28.6386469]}, "properties": {"FID": 124, "NAME": "PS TILAK NAGAR", "DISTRICT": "WEST", "X": "705460\u00b0 58' 48.000\" E", "Y": "3169758\u00b0 40' 46.920\" N"}},
{"type": "Feature", "geometry": {"type": "Point", "coordinates": [77.1353084, 28.6402339]}, "properties": {"FID": 125, "NAME": "PS KIRTI NAGAR", "DISTRICT": "WEST", "X": "708721\u00b0 16' 0.661\" E", "Y": "3169992\u00b0 25' 38.255\" N"}},
{"type": "Feature", "geometry": {"type": "Point", "coordinates": [77.0681776, 28.6302022]}, "properties": {"FID": 126, "NAME": "PS VIKAS PURI", "DISTRICT": "WEST", "X": "702177\u00b0 3' 22.960\" E", "Y": "3168765\u00b0 12' 44.402\" N"}},
{"type": "Feature", "geometry": {"type": "Point", "coordinates": [77.121477, 28.6266733]}, "properties": {"FID": 127, "NAME": "PS MAYA PURI", "DISTRICT": "WEST", "X": "707395\u00b0 37' 30.679\" E", "Y": "3168465\u00b0 27' 20.845\" N"}},
{"type": "Feature", "geometry": {"type": "Point", "coordinates": [77.0669817, 28.6817634]}, "properties": {"FID": 128, "NAME": "PS NANGLOI", "DISTRICT": "OUTER", "X": "701961\u00b0 13' 24.240\" E", "Y": "3174477\u00b0 27' 35.640\" N"}},
{"type": "Feature", "geometry": {"type": "Point", "coordinates": [77.0712738, 28.6649193]}, "properties": {"FID": 129, "NAME": "PS NIHAL VIHAR", "DISTRICT": "OUTER", "X": "702413\u00b0 5' 3.840\" E", "Y": "3172617\u00b0 58' 46.200\" N"}},
{"type": "Feature", "geometry": {"type": "Point", "coordinates": [77.0964194, 28.651773]}, "properties": {"FID": 130, "NAME": "PS KHYALA", "DISTRICT": "WEST", "X": "704896\u00b0 35' 29.275\" E", "Y": "3171203\u00b0 55' 17.873\" N"}},
{"type": "Feature", "geometry": {"type": "Point", "coordinates": [77.1799951, 28.5217342]}, "properties": {"FID": 131, "NAME": "PS MEHRAULI", "DISTRICT": "SOUTH", "X": "713329\u00b0 35' 28.666\" E", "Y": "3156938\u00b0 11' 25.604\" N"}},
{"type": "Feature", "geometry": {"type": "Point", "coordinates": [77.2952597, 28.63876]}, "properties": {"FID": 132, "NAME": "PS PREET VIHAR", "DISTRICT": "EAST", "X": "724363\u00b0 39' 22.243\" E", "Y": "3170119\u00b0 2' 26.507\" N"}},
{"type": "Feature", "geometry": {"type": "Point", "coordinates": [77.306125, 28.6251642]}, "properties": {"FID": 133, "NAME": "PS MADHU VIHAR", "DISTRICT": "EAST", "X": "725455\u00b0 8' 3.802\" E", "Y": "3168632\u00b0 37' 7.353\" N"}},
{"type": "Feature", "geometry": {"type": "Point", "coordinates": [77.2728727, 28.6790474]}, "properties": {"FID": 134, "NAME": "PS JAFFRABAD", "DISTRICT": "NORTH EAST", "X": "722089\u00b0 40' 48.000\" E", "Y": "3174542\u00b0 22' 31.800\" N"}},
{"type": "Feature", "geometry": {"type": "Point", "coordinates": [77.2458753, 28.7459619]}, "properties": {"FID": 135, "NAME": "PS SONIA VIHAR", "DISTRICT": "NORTH EAST", "X": "719311\u00b0 12' 35.280\" E", "Y": "3181908\u00b0 43' 59.160\" N"}},
{"type": "Feature", "geometry": {"type": "Point", "coordinates": [77.2909364, 28.696443]}, "properties": {"FID": 136, "NAME": "PS JYOTI NAGAR", "DISTRICT": "NORTH EAST", "X": "723818\u00b0 13' 24.535\" E", "Y": "3176504\u00b0 10' 12.791\" N"}},
{"type": "Feature", "geometry": {"type": "Point", "coordinates": [77.1655833, 28.7427183]}, "properties": {"FID": 137, "NAME": "PS BHALSWA DAIRY", "DISTRICT": "OUTER NORTH", "X": "711475\u00b0 7' 9.369\" E", "Y": "3181403\u00b0 58' 23.610\" N"}},
{"type": "Feature", "geometry": {"type": "Point", "coordinates": [77.1781408, 28.6804957]}, "properties": {"FID": 138, "NAME": "PS BHARAT NAGAR", "DISTRICT": "NORTH WEST", "X": "712827\u00b0 43' 29.640\" E", "Y": "3174530\u00b0 12' 39.960\" N"}},
{"type": "Feature", "geometry": {"type": "Point", "coordinates": [77.1192169, 28.6976142]}, "properties": {"FID": 139, "NAME": "PS RANI BAGH", "DISTRICT": "OUTER", "X": "707035\u00b0 4' 44.984\" E", "Y": "3176323\u00b0 42' 49.992\" N"}},
{"type": "Feature", "geometry": {"type": "Point", "coordinates": [77.1640754, 28.7256535]}, "properties": {"FID": 140, "NAME": "PS MAHENDRA PARK", "DISTRICT": "NORTH WEST", "X": "711362\u00b0 11' 41.022\" E", "Y": "3179510\u00b0 0' 8.046\" N"}},
{"type": "Feature", "geometry": {"type": "Point", "coordinates": [77.1209558, 28.7309856]}, "properties": {"FID": 141, "NAME": "PS K.N. KATJU MARG", "DISTRICT": "ROHINI", "X": "707139\u00b0 11' 26.808\" E", "Y": "3180025\u00b0 12' 44.402\" N"}},
{"type": "Feature", "geometry": {"type": "Point", "coordinates": [77.1179044, 28.7088597]}, "properties": {"FID": 142, "NAME": "PS NORTH ROHINI", "DISTRICT": "ROHINI", "X": "706884\u00b0 40' 53.400\" E", "Y": "3177567\u00b0 44' 39.120\" N"}},
{"type": "Feature", "geometry": {"type": "Point", "coordinates": [77.1155834, 28.7023636]}, "properties": {"FID": 143, "NAME": "PS SOUTH ROHINI", "DISTRICT": "ROHINI", "X": "706670\u00b0 40' 36.480\" E", "Y": "3176843\u00b0 46' 14.880\" N"}},
{"type": "Feature", "geometry": {"type": "Point", "coordinates": [77.0645148, 28.7181969]}, "properties": {"FID": 144, "NAME": "PS AMAN VIHAR", "DISTRICT": "ROHINI", "X": "701650\u00b0 13' 51.045\" E", "Y": "3178511\u00b0 2' 35.530\" N"}},
{"type": "Feature", "geometry": {"type": "Point", "coordinates": [77.0283106, 28.5910626]}, "properties": {"FID": 145, "NAME": "PS DWARKA NORTH", "DISTRICT": "DWARKA", "X": "698352\u00b0 28' 44.656\" E", "Y": "3164360\u00b0 50' 44.827\" N"}},
{"type": "Feature", "geometry": {"type": "Point", "coordinates": [77.0356073, 28.6539228]}, "properties": {"FID": 146, "NAME": "PS RANHOLA", "DISTRICT": "OUTER", "X": "698947\u00b0 35' 9.240\" E", "Y": "3171339\u00b0 20' 30.480\" N"}},
{"type": "Feature", "geometry": {"type": "Point", "coordinates": [77.1586106, 28.6474441]}, "properties": {"FID": 147, "NAME": "PS RANJIT NAGAR", "DISTRICT": "CENTRAL", "X": "710985\u00b0 8' 57.120\" E", "Y": "3170832\u00b0 27' 3.960\" N"}},
{"type": "Feature", "geometry": {"type": "Point", "coordinates": [77.2600383, 28.5781562]}, "properties": {"FID": 148, "NAME": "PS SUNLIGHT COLONY", "DISTRICT": "SOUTH EAST", "X": "721046\u00b0 40' 44.631\" E", "Y": "3163336\u00b0 32' 33.605\" N"}},
{"type": "Feature", "geometry": {"type": "Point", "coordinates": [77.1516235, 28.5353347]}, "properties": {"FID": 149, "NAME": "PS VASANT KUNJ SOUTH", "DISTRICT": "SOUTH WEST", "X": "710525\u00b0 26' 14.892\" E", "Y": "3158395\u00b0 20' 37.293\" N"}},
{"type": "Feature", "geometry": {"type": "Point", "coordinates": [77.1994672, 28.574319]}, "properties": {"FID": 150, "NAME": "PS SAFDARJUNG ENCLAVE", "DISTRICT": "SOUTH WEST", "X": "715128\u00b0 37' 57.772\" E", "Y": "3162800\u00b0 53' 59.125\" N"}},
{"type": "Feature", "geometry": {"type": "Point", "coordinates": [77.0876514, 28.6682652]}, "properties": {"FID": 151, "NAME": "PS PASCHIM VIHAR WEST", "DISTRICT": "OUTER", "X": "704007\u00b0 28' 12.155\" E", "Y": "3173016\u00b0 40' 17.655\" N"}},
{"type": "Feature", "geometry": {"type": "Point", "coordinates": [77.1218668, 28.56482]}, "properties": {"FID": 152, "NAME": "PS DOMESTIC AIRPORT", "DISTRICT": "AIRPORT", "X": "707555\u00b0 17' 57.685\" E", "Y": "3161611\u00b0 9' 41.800\" N"}},
{"type": "Feature", "geometry": {"type": "Point", "coordinates": [77.0912658, 28.5541988]}, "properties": {"FID": 153, "NAME": "PS IGI AIRPORT", "DISTRICT": "AIRPORT", "X": "704581\u00b0 48' 49.636\" E", "Y": "3160381\u00b0 24' 47.357\" N"}},
{"type": "Feature", "geometry": {"type": "Point", "coordinates": [76.9605492, 28.6707033]}, "properties": {"FID": 154, "NAME": "PS MUNDKA", "DISTRICT": "OUTER", "X": "691579\u00b0 45' 10.849\" E", "Y": "3173076\u00b0 13' 46.294\" N"}},
{"type": "Feature", "geometry": {"type": "Point", "coordinates": [77.2984914, 28.6829761]}, "properties": {"FID": 155, "NAME": "PS MANSAROVER PARK", "DISTRICT": "SHAHDARA", "X": "724585\u00b0 18' 35.424\" E", "Y": "3175025\u00b0 46' 7.175\" N"}},
{"type": "Feature", "geometry": {"type": "Point", "coordinates": [77.3158649, 28.6856021]}, "properties": {"FID": 156, "NAME": "PS G.T.B.ENCLAVE", "DISTRICT": "SHAHDARA", "X": "726277\u00b0 43' 26.967\" E", "Y": "3175349\u00b0 39' 37.209\" N"}},
{"type": "Feature", "geometry": {"type": "Point", "coordinates": [77.3324677, 28.6246442]}, "properties": {"FID": 157, "NAME": "PS GHAZIPUR", "DISTRICT": "EAST", "X": "728032\u00b0 23' 48.896\" E", "Y": "3168624\u00b0 58' 5.964\" N"}},
{"type": "Feature", "geometry": {"type": "Point", "coordinates": [76.9611726, 28.6389792]}, "properties": {"FID": 158, "NAME": "PS BABA HARIDAS NAGAR", "DISTRICT": "DWARKA", "X": "691698\u00b0 24' 59.971\" E", "Y": "3169561\u00b0 32' 3.507\" N"}},
{"type": "Feature", "geometry": {"type": "Point", "coordinates": [77.066624, 28.5779942]}, "properties": {"FID": 159, "NAME": "PS DWARKA SOUTH", "DISTRICT": "DWARKA", "X": "702125\u00b0 6' 29.349\" E", "Y": "3162976\u00b0 39' 55.070\" N"}},
{"type": "Feature", "geometry": {"type": "Point", "coordinates": [77.2294433, 28.660612]}, "properties": {"FID": 160, "NAME": "PS OLD DELHI RAILWAY STATION", "DISTRICT": "RAILWAY", "X": "717883\u00b0 2' 53.870\" E", "Y": "3172419\u00b0 4' 0.526\" N"}},
{"type": "Feature", "geometry": {"type": "Point", "coordinates": [77.3150238, 28.648388]}, "properties": {"FID": 161, "NAME": "PS ANAND VIHAR RAILWAY STATION", "DISTRICT": "RAILWAY", "X": "726275\u00b0 30' 30.682\" E", "Y": "3171223\u00b0 26' 18.898\" N"}},
{"type": "Feature", "geometry": {"type": "Point", "coordinates": [77.2263821, 28.6661434]}, "properties": {"FID": 162, "NAME": "PS METRO STATION KASHMERE GATE", "DISTRICT": "METRO", "X": "717572\u00b0 21' 32.642\" E", "Y": "3173026\u00b0 32' 24.020\" N"}},
{"type": "Feature", "geometry": {"type": "Point", "coordinates": [77.2189082, 28.6439206]}, "properties": {"FID": 163, "NAME": "PS NEW DELHI RAILWAY STATION", "DISTRICT": "RAILWAY", "X": "716887\u00b0 32' 16.010\" E", "Y": "3170549\u00b0 57' 56.821\" N"}},
{"type": "Feature", "geometry": {"type": "Point", "coordinates": [77.107721, 28.7196629]}, "properties": {"FID": 164, "NAME": "PS METRO STATION RITHALA", "DISTRICT": "METRO", "X": "705868\u00b0 31' 11.897\" E", "Y": "3178747\u00b0 23' 46.974\" N"}},
{"type": "Feature", "geometry": {"type": "Point", "coordinates": [77.2492781, 28.6687451]}, "properties": {"FID": 165, "NAME": "PS METRO STATION SHASTRI PARK", "DISTRICT": "METRO", "X": "719805\u00b0 2' 58.437\" E", "Y": "3173356\u00b0 50' 53.658\" N"}},
{"type": "Feature", "geometry": {"type": "Point", "coordinates": [77.2534625, 28.5881708]}, "properties": {"FID": 166, "NAME": "PS HAZRAT NIZAMUDIN RAILWAY STATION", "DISTRICT": "RAILWAY", "X": "720382\u00b0 26' 52.008\" E", "Y": "3164434\u00b0 21' 10.812\" N"}},
{"type": "Feature", "geometry": {"type": "Point", "coordinates": [77.1221187, 28.6499735]}, "properties": {"FID": 167, "NAME": "PS METRO STATION RAJA GARDEN", "DISTRICT": "METRO", "X": "707412\u00b0 30' 50.533\" E", "Y": "3171048\u00b0 51' 43.423\" N"}},
{"type": "Feature", "geometry": {"type": "Point", "coordinates": [77.2272662, 28.5880128]}, "properties": {"FID": 168, "NAME": "PS SPL.CELL", "DISTRICT": "SPL.CELL", "X": "717820\u00b0 8' 9.022\" E", "Y": "3164368\u00b0 52' 10.846\" N"}},
{"type": "Feature", "geometry": {"type": "Point", "coordinates": [77.1993488, 28.5308834]}, "properties": {"FID": 169, "NAME": "PS CAW CELL", "DISTRICT": "CRIME", "X": "715205\u00b0 24' 25.072\" E", "Y": "3157986\u00b0 46' 15.496\" N"}},
{"type": "Feature", "geometry": {"type": "Point", "coordinates": [77.2214684, 28.5170518]}, "properties": {"FID": 170, "NAME": "PS CRIME BRANCH", "DISTRICT": "CRIME", "X": "717398\u00b0 47' 34.642\" E", "Y": "3156493\u00b0 44' 18.947\" N"}},
{"type": "Feature", "geometry": {"type": "Point", "coordinates": [77.1856867, 28.6627823]}, "properties": {"FID": 171, "NAME": "PS SARAI ROHILLA RAILWAY STATION", "DISTRICT": "RAILWAY", "X": "713601\u00b0 10' 57.493\" E", "Y": "3172580\u00b0 31' 20.311\" N"}},
{"type": "Feature", "geometry": {"type": "Point", "coordinates": [77.1493724, 28.4940162]}, "properties": {"FID": 172, "NAME": "PS METRO STATION GHITORNI", "DISTRICT": "METRO", "X": "710387\u00b0 10' 24.354\" E", "Y": "3153812\u00b0 13' 5.283\" N"}},
{"type": "Feature", "geometry": {"type": "Point", "coordinates": [77.2784057, 28.6818112]}, "properties": {"FID": 173, "NAME": "PS WELCOME", "DISTRICT": "NORTH EAST", "X": "722624\u00b0 38' 17.293\" E", "Y": "3174859\u00b0 0' 37.167\" N"}},
{"type": "Feature", "geometry": {"type": "Point", "coordinates": [77.2935156, 28.6540846]}, "properties": {"FID": 174, "NAME": "PS ANAND VIHAR", "DISTRICT": "SHAHDARA", "X": "724160\u00b0 30' 11.971\" E", "Y": "3171814\u00b0 14' 35.592\" N"}},
{"type": "Feature", "geometry": {"type": "Point", "coordinates": [77.2918286, 28.560391]}, "properties": {"FID": 175, "NAME": "PS METRO STATION OKHLA VIHAR", "DISTRICT": "METRO", "X": "724194\u00b0 34' 5.062\" E", "Y": "3161426\u00b0 42' 38.131\" N"}},
{"type": "Feature", "geometry": {"type": "Point", "coordinates": [77.2673833, 28.622661]}, "properties": {"FID": 176, "NAME": "PS METRO STATION YAMUNA DEPOT", "DISTRICT": "METRO", "X": "721671\u00b0 47' 9.563\" E", "Y": "3168282\u00b0 41' 48.729\" N"}},
{"type": "Feature", "geometry": {"type": "Point", "coordinates": [77.2258356, 28.6308798]}, "properties": {"FID": 177, "NAME": "PS VIGILANCE", "DISTRICT": "VIGILANCE", "X": "717591\u00b0 46' 4.324\" E", "Y": "3169117\u00b0 14' 8.337\" N"}},
{"type": "Feature", "geometry": {"type": "Point", "coordinates": [77.2029972, 28.6393745]}, "properties": {"FID": 178, "NAME": "PS EOW", "DISTRICT": "CRIME", "X": "715341\u00b0 11' 16.068\" E", "Y": "3170017\u00b0 19' 46.964\" N"}},
{"type": "Feature", "geometry": {"type": "Point", "coordinates": [77.199762, 28.6072343]}, "properties": {"FID": 179, "NAME": "PS SOUTH AVENUE", "DISTRICT": "NEW DELHI", "X": "715090\u00b0 24' 42.372\" E", "Y": "3166449\u00b0 24' 11.699\" N"}},
{"type": "Feature", "geometry": {"type": "Point", "coordinates": [77.1990819, 28.6179676]}, "properties": {"FID": 180, "NAME": "PS NORTH AVENUE", "DISTRICT": "NEW DELHI", "X": "715002\u00b0 1' 26.435\" E", "Y": "3167637\u00b0 45' 14.950\" N"}},
{"type": "Feature", "geometry": {"type": "Point", "coordinates": [77.2261226, 28.6426493]}, "properties": {"FID": 181, "NAME": "PS E-POILCE STATION", "DISTRICT": "CRIME", "X": "717595\u00b0 31' 45.139\" E", "Y": "3170422\u00b0 11' 7.035\" N"}},
{"type": "Feature", "geometry": {"type": "Point", "coordinates": [77.1211042, 28.5487058]}, "properties": {"FID": 182, "NAME": "PS METRO STATION IGI AIRPORT", "DISTRICT": "METRO", "X": "707512\u00b0 18' 35.518\" E", "Y": "3159823\u00b0 58' 11.039\" N"}},
{"type": "Feature", "geometry": {"type": "Point", "coordinates": [77.064288, 28.6833475]}, "properties": {"FID": 183, "NAME": "PS METRO STATION NANGLOI", "DISTRICT": "METRO", "X": "701694\u00b0 55' 42.731\" E", "Y": "3174648\u00b0 27' 29.798\" N"}},
{"type": "Feature", "geometry": {"type": "Point", "coordinates": [77.0223493, 28.61361]}, "properties": {"FID": 184, "NAME": "PS METRO STATION JANAK PURI", "DISTRICT": "METRO", "X": "697727\u00b0 8' 7.058\" E", "Y": "3166849\u00b0 44' 17.473\" N"}},
{"type": "Feature", "geometry": {"type": "Point", "coordinates": [77.1153603, 28.6115892]}, "properties": {"FID": 185, "NAME": "PS DELHI CANTT.RAILWAY STATION", "DISTRICT": "RAILWAY", "X": "706827\u00b0 5' 13.318\" E", "Y": "3166783\u00b0 8' 20.268\" N"}},
{"type": "Feature", "geometry": {"type": "Point", "coordinates": [77.2003082, 28.6679555]}, "properties": {"FID": 186, "NAME": "PS SUBZI MANDI RAILWAY STATION", "DISTRICT": "RAILWAY", "X": "715019\u00b0 54' 51.315\" E", "Y": "3173180\u00b0 7' 24.168\" N"}},
{"type": "Feature", "geometry": {"type": "Point", "coordinates": [77.1800507, 28.7067568]}, "properties": {"FID": 187, "NAME": "PS METRO STATION AZAD PUR", "DISTRICT": "METRO", "X": "712961\u00b0 11' 22.967\" E", "Y": "3177444\u00b0 7' 39.851\" N"}},
{"type": "Feature", "geometry": {"type": "Point", "coordinates": [77.2269551, 28.6499589]}, "properties": {"FID": 188, "NAME": "PS METRO STATION RAJIV CHOWK", "DISTRICT": "METRO", "X": "717661\u00b0 49' 32.943\" E", "Y": "3171233\u00b0 49' 43.477\" N"}},
{"type": "Feature", "geometry": {"type": "Point", "coordinates": [77.2426143, 28.6234836]}, "properties": {"FID": 189, "NAME": "PS METRO STATION PRAGATI MAIDAN", "DISTRICT": "METRO", "X": "719247\u00b0 50' 26.068\" E", "Y": "3168328\u00b0 10' 41.218\" N"}},
{"type": "Feature", "geometry": {"type": "Point", "coordinates": [77.2096761, 28.5757506]}, "properties": {"FID": 190, "NAME": "PS METRO STATION INA", "DISTRICT": "METRO", "X": "716124\u00b0 29' 39.575\" E", "Y": "3162977\u00b0 57' 14.150\" N"}},
{"type": "Feature", "geometry": {"type": "Point", "coordinates": [77.1524135, 28.6958801]}, "properties": {"FID": 191, "NAME": "PS METRO STATION NETAJI SUBHASH PLACE", "DISTRICT": "METRO", "X": "710282\u00b0 28' 58.158\" E", "Y": "3176189\u00b0 37' 4.357\" N"}},
{"type": "Feature", "geometry": {"type": "Point", "coordinates": [77.1093561, 28.6228272]}, "properties": {"FID": 192, "NAME": "PS HARI NAGAR", "DISTRICT": "WEST", "X": "706217\u00b0 54' 39.576\" E", "Y": "3168018\u00b0 13' 53.671\" N"}},
{"type": "Feature", "geometry": {"type": "Point", "coordinates": [77.050546, 28.7013057]}, "properties": {"FID": 193, "NAME": "PS PREM NAGAR", "DISTRICT": "ROHINI", "X": "700317\u00b0 42' 59.350\" E", "Y": "3176615\u00b0 31' 5.666\" N"}},
{"type": "Feature", "geometry": {"type": "Point", "coordinates": [77.0968496, 28.702782]}, "properties": {"FID": 194, "NAME": "PS VIJAY VIHAR", "DISTRICT": "ROHINI", "X": "704839\u00b0 18' 53.105\" E", "Y": "3176857\u00b0 48' 12.444\" N"}},
{"type": "Feature", "geometry": {"type": "Point", "coordinates": [77.0946222, 28.8317453]}, "properties": {"FID": 195, "NAME": "PS NARELA INDL.AREA", "DISTRICT": "OUTER NORTH", "X": "704370\u00b0 6' 0.197\" E", "Y": "3191146\u00b0 40' 39.622\" N"}},
{"type": "Feature", "geometry": {"type": "Point", "coordinates": [77.188333, 28.5374792]}, "properties": {"FID": 196, "NAME": "PS KISHAN GARH", "DISTRICT": "SOUTH WEST", "X": "714113\u00b0 53' 36.166\" E", "Y": "3158698\u00b0 2' 34.410\" N"}},
{"type": "Feature", "geometry": {"type": "Point", "coordinates": [77.2524943, 28.5514376]}, "properties": {"FID": 197, "NAME": "PS METRO STATION NEHRU PLACE", "DISTRICT": "METRO", "X": "720364\u00b0 18' 53.828\" E", "Y": "3160361\u00b0 22' 40.244\" N"}},
{"type": "Feature", "geometry": {"type": "Point", "coordinates": [77.2865189, 28.7025358]}, "properties": {"FID": 198, "NAME": "PS DAYAL PUR", "DISTRICT": "NORTH EAST", "X": "723373\u00b0 34' 34.920\" E", "Y": "3177171\u00b0 10' 27.738\" N"}},
{"type": "Feature", "geometry": {"type": "Point", "coordinates": [77.261706, 28.6726547]}, "properties": {"FID": 199, "NAME": "PS SHASTRI PARK", "DISTRICT": "NORTH EAST", "X": "721011\u00b0 40' 0.137\" E", "Y": "3173813\u00b0 6' 58.608\" N"}},
{"type": "Feature", "geometry": {"type": "Point", "coordinates": [77.2706684, 28.637575]}, "properties": {"FID": 200, "NAME": "PS LAXMI NAGAR", "DISTRICT": "EAST", "X": "721961\u00b0 38' 48.381\" E", "Y": "3169941\u00b0 45' 15.731\" N"}},
{"type": "Feature", "geometry": {"type": "Point", "coordinates": [77.3159969, 28.6451752]}, "properties": {"FID": 201, "NAME": "PS PATPARGANJ INDL. AREA", "DISTRICT": "EAST", "X": "726377\u00b0 32' 52.775\" E", "Y": "3170869\u00b0 11' 52.221\" N"}},
{"type": "Feature", "geometry": {"type": "Point", "coordinates": [77.2962542, 28.5492605]}, "properties": {"FID": 202, "NAME": "PS SHAHEEN BAGH", "DISTRICT": "SOUTH EAST", "X": "724651\u00b0 16' 18.002\" E", "Y": "3160201\u00b0 22' 40.055\" N"}},
{"type": "Feature", "geometry": {"type": "Point", "coordinates": [77.3187696, 28.5305689]}, "properties": {"FID": 203, "NAME": "PS KALINDI KUNJ", "DISTRICT": "SOUTH EAST", "X": "726894\u00b0 46' 1.633\" E", "Y": "3158172\u00b0 9' 26.667\" N"}},
{"type": "Feature", "geometry": {"type": "Point", "coordinates": [77.0822819, 28.6942721]}, "properties": {"FID": 204, "NAME": "PS RAJ PARK", "DISTRICT": "OUTER", "X": "703432\u00b0 20' 2.894\" E", "Y": "3175889\u00b0 44' 36.275\" N"}},
{"type": "Feature", "geometry": {"type": "Point", "coordinates": [77.1799763, 28.521868]}, "properties": {"FID": 205, "NAME": "PS MAIDAN GARHI", "DISTRICT": "SOUTH", "X": "713327\u00b0 28' 53.897\" E", "Y": "3156952\u00b0 59' 40.162\" N"}},
{"type": "Feature", "geometry": {"type": "Point", "coordinates": [77.2136695, 28.4989286]}, "properties": {"FID": 206, "NAME": "PS TIGRI", "DISTRICT": "SOUTH", "X": "716672\u00b0 25' 24.293\" E", "Y": "3154471\u00b0 3' 24.757\" N"}},
{"type": "Feature", "geometry": {"type": "Point", "coordinates": [77.2241419, 28.7064389]}, "properties": {"FID": 207, "NAME": "PS WAZIRABAD", "DISTRICT": "NORTH", "X": "717270\u00b0 7' 16.603\" E", "Y": "3177488\u00b0 28' 1.977\" N"}},
{"type": "Feature", "geometry": {"type": "Point", "coordinates": [77.0344222, 28.6294694]}, "properties": {"FID": 208, "NAME": "PS MOHAN GARDEN", "DISTRICT": "DWARKA", "X": "698877\u00b0 52' 37.572\" E", "Y": "3168627\u00b0 21' 5.349\" N"}},
{"type": "Feature", "geometry": {"type": "Point", "coordinates": [77.072869, 28.7217757]}, "properties": {"FID": 209, "NAME": "PS CYBER CRIME ROHINI", "DISTRICT": "ROHINI", "X": "702459\u00b0 31' 9.847\" E", "Y": "3178921\u00b0 50' 21.876\" N"}},
{"type": "Feature", "geometry": {"type": "Point", "coordinates": [77.2089861, 28.5490239]}, "properties": {"FID": 210, "NAME": "PS CYBER CRIM SOUTH", "DISTRICT": "SOUTH", "X": "716111\u00b0 37' 11.366\" E", "Y": "3160014\u00b0 36' 11.456\" N"}},
{"type": "Feature", "geometry": {"type": "Point", "coordinates": [77.2816416, 28.5399657]}, "properties": {"FID": 211, "NAME": "PS CYBER CRIME SOUTH EAST", "DISTRICT": "SOUTH EAST", "X": "723240\u00b0 51' 41.381\" E", "Y": "3159143\u00b0 53' 50.889\" N"}},
{"type": "Feature", "geometry": {"type": "Point", "coordinates": [77.1688164, 28.558163]}, "properties": {"FID": 212, "NAME": "PS CYBER CRIME SOUTH WEST", "DISTRICT": "SOUTH WEST", "X": "712162\u00b0 19' 51.349\" E", "Y": "3160955\u00b0 39' 43.737\" N"}},
{"type": "Feature", "geometry": {"type": "Point", "coordinates": [77.3152542, 28.6285638]}, "properties": {"FID": 213, "NAME": "PS CYBER CRIME EAST", "DISTRICT": "EAST", "X": "726340\u00b0 36' 43.992\" E", "Y": "3169026\u00b0 39' 49.767\" N"}},
{"type": "Feature", "geometry": {"type": "Point", "coordinates": [77.2867258, 28.6648844]}, "properties": {"FID": 214, "NAME": "PS CYBER CRIME SHAHDARA", "DISTRICT": "SHAHDARA", "X": "723473\u00b0 46' 38.306\" E", "Y": "3172998\u00b0 29' 57.965\" N"}},
{"type": "Feature", "geometry": {"type": "Point", "coordinates": [77.2710281, 28.6722758]}, "properties": {"FID": 215, "NAME": "PS CYBER CRIME NORTH EAST", "DISTRICT": "NORTH EAST", "X": "721923\u00b0 40' 21.851\" E", "Y": "3173788\u00b0 25' 36.361\" N"}},
{"type": "Feature", "geometry": {"type": "Point", "coordinates": [77.2229754, 28.6887168]}, "properties": {"FID": 216, "NAME": "PS CYBER CRIME NORTH", "DISTRICT": "NORTH", "X": "717192\u00b0 44' 50.259\" E", "Y": "3175522\u00b0 10' 14.733\" N"}},
{"type": "Feature", "geometry": {"type": "Point", "coordinates": [77.2409524, 28.6416154]}, "properties": {"FID": 217, "NAME": "PS CYBER CRIME CENTRAL", "DISTRICT": "CENTRAL", "X": "719047\u00b0 38' 30.475\" E", "Y": "3170334\u00b0 42' 21.678\" N"}},
{"type": "Feature", "geometry": {"type": "Point", "coordinates": [77.173735, 28.6921988]}, "properties": {"FID": 218, "NAME": "PS CYBER CRIME NORTH WEST", "DISTRICT": "NORTH WEST", "X": "712373\u00b0 28' 42.507\" E", "Y": "3175819\u00b0 23' 59.848\" N"}},
{"type": "Feature", "geometry": {"type": "Point", "coordinates": [77.1413916, 28.7252321]}, "properties": {"FID": 219, "NAME": "PS CYBER CRIME OUTER NORTH", "DISTRICT": "OUTER NORTH", "X": "709146\u00b0 58' 36.250\" E", "Y": "3179423\u00b0 16' 10.143\" N"}},
{"type": "Feature", "geometry": {"type": "Point", "coordinates": [77.1089633, 28.6891501]}, "properties": {"FID": 220, "NAME": "PS CYBER CRIME OUTER", "DISTRICT": "OUTER", "X": "706049\u00b0 42' 2.101\" E", "Y": "3175367\u00b0 54' 1.793\" N"}},
{"type": "Feature", "geometry": {"type": "Point", "coordinates": [77.0550153, 28.578039]}, "properties": {"FID": 221, "NAME": "PS CYBER CRIME DWARKA", "DISTRICT": "DWARKA", "X": "700989\u00b0 22' 25.807\" E", "Y": "3162962\u00b0 5' 21.096\" N"}},
{"type": "Feature", "geometry": {"type": "Point", "coordinates": [77.1198988, 28.6516833]}, "properties": {"FID": 222, "NAME": "PS CYBER CRIME WEST", "DISTRICT": "WEST", "X": "707192\u00b0 7' 27.225\" E", "Y": "3171234\u00b0 29' 53.611\" N"}},
{"type": "Feature", "geometry": {"type": "Point", "coordinates": [77.2129008, 28.6247152]}, "properties": {"FID": 223, "NAME": "PS CYBER CRIME NEW DELHI", "DISTRICT": "NEW DELHI", "X": "716339\u00b0 36' 10.319\" E", "Y": "3168410\u00b0 31' 14.076\" N"}}
]}
